$GPRMC,214048.80,A,4629.33429,N,12222.47505,W,0.000,,170119,,,A*6A
$GPRMC,214049.00,A,4629.33429,N,12222.47505,W,0.000,,170119,,,A*63
$GPRMC,214049.20,A,4629.33429,N,12222.47505,W,0.000,,170119,,,A*61
$GPRMC,214049.40,A,4629.33429,N,12222.47505,W,0.000,,170119,,,A*67
$GPRMC,214049.60,A,4629.33429,N,12222.47505,W,0.000,,170119,,,A*65
$GPRMC,214049.80,A,4629.33429,N,12222.47505,W,0.000,,170119,,,A*6B
$GPRMC,214050.00,A,4629.33429,N,12222.47505,W,0.000,,170119,,,A*6B
$GPRMC,214050.20,A,4629.33429,N,12222.47505,W,0.000,,170119,,,A*69
$GPRMC,214050.40,A,4629.33429,N,12222.47505,W,0.000,,170119,,,A*6F
$GPRMC,214050.60,A,4629.33429,N,12222.47505,W,0.000,,170119,,,A*6D
$GPRMC,214050.80,A,4629.33427,N,12222.47527,W,2.163,266.42,170119,,,A*71
$GPRMC,214051.00,A,4629.33427,N,12222.47564,W,2.641,272.92,170119,,,A*70
$GPRMC,214051.20,A,4629.33427,N,12222.47603,W,3.309,273.94,170119,,,A*7F
$GPRMC,214051.40,A,4629.33428,N,12222.47646,W,4.307,273.98,170119,,,A*72
$GPRMC,214051.60,A,4629.33427,N,12222.47696,W,5.000,272.45,170119,,,A*76
$GPRMC,214051.80,A,4629.33428,N,12222.47747,W,5.670,272.83,170119,,,A*71
$GPRMC,214052.00,A,4629.33428,N,12222.47808,W,5.987,272.56,170119,,,A*71
$GPRMC,214052.20,A,4629.33421,N,12222.47878,W,6.775,267.93,170119,,,A*70
$GPRMC,214052.40,A,4629.33417,N,12222.47951,W,7.333,267.05,170119,,,A*71
$GPRMC,214052.60,A,4629.33412,N,12222.48030,W,8.191,266.01,170119,,,A*77
$GPRMC,214052.80,A,4629.33408,N,12222.48114,W,8.599,266.79,170119,,,A*76
$GPRMC,214053.00,A,4629.33403,N,12222.48198,W,9.102,265.36,170119,,,A*7F
$GPRMC,214053.20,A,4629.33397,N,12222.48283,W,9.501,264.27,170119,,,A*78
$GPRMC,214053.40,A,4629.33391,N,12222.48372,W,9.914,264.71,170119,,,A*7C
$GPRMC,214053.60,A,4629.33383,N,12222.48462,W,10.226,264.60,170119,,,A*49
$GPRMC,214053.80,A,4629.33379,N,12222.48551,W,10.489,265.61,170119,,,A*40
$GPRMC,214054.00,A,4629.33372,N,12222.48649,W,11.268,265.07,170119,,,A*46
$GPRMC,214054.20,A,4629.33369,N,12222.48746,W,11.607,266.32,170119,,,A*48
$GPRMC,214054.40,A,4629.33359,N,12222.48852,W,12.487,265.01,170119,,,A*4D
$GPRMC,214054.60,A,4629.33350,N,12222.48961,W,13.012,265.44,170119,,,A*4F
$GPRMC,214054.80,A,4629.33342,N,12222.49072,W,13.509,265.29,170119,,,A*4C
$GPRMC,214055.00,A,4629.33335,N,12222.49187,W,13.951,265.81,170119,,,A*4D
$GPRMC,214055.20,A,4629.33328,N,12222.49307,W,14.473,266.04,170119,,,A*4D
$GPRMC,214055.40,A,4629.33322,N,12222.49433,W,15.037,266.60,170119,,,A*46
$GPRMC,214055.60,A,4629.33316,N,12222.49561,W,15.564,266.64,170119,,,A*42
$GPRMC,214055.80,A,4629.33311,N,12222.49692,W,16.016,266.93,170119,,,A*4F
$GPRMC,214056.00,A,4629.33307,N,12222.49827,W,16.651,267.27,170119,,,A*48
$GPRMC,214056.20,A,4629.33301,N,12222.49968,W,17.193,267.45,170119,,,A*4A
$GPRMC,214056.40,A,4629.33299,N,12222.50111,W,17.728,268.04,170119,,,A*4E
$GPRMC,214056.60,A,4629.33293,N,12222.50259,W,18.281,267.17,170119,,,A*4D
$GPRMC,214056.80,A,4629.33288,N,12222.50413,W,18.933,267.69,170119,,,A*4A
$GPRMC,214057.00,A,4629.33287,N,12222.50568,W,19.270,268.53,170119,,,A*4A
$GPRMC,214057.20,A,4629.33282,N,12222.50730,W,20.023,268.07,170119,,,A*4D
$GPRMC,214057.40,A,4629.33278,N,12222.50899,W,20.657,268.11,170119,,,A*40
$GPRMC,214057.60,A,4629.33271,N,12222.51070,W,21.070,267.74,170119,,,A*4B
$GPRMC,214057.80,A,4629.33267,N,12222.51245,W,21.602,268.08,170119,,,A*41
$GPRMC,214058.00,A,4629.33260,N,12222.51423,W,22.143,267.02,170119,,,A*43
$GPRMC,214058.20,A,4629.33255,N,12222.51618,W,23.558,268.16,170119,,,A*48
$GPRMC,214058.40,A,4629.33246,N,12222.51805,W,23.439,266.75,170119,,,A*43
$GPRMC,214058.60,A,4629.33243,N,12222.51989,W,23.443,267.22,170119,,,A*4F
$GPRMC,214058.80,A,4629.33243,N,12222.52189,W,24.585,269.24,170119,,,A*4E
$GPRMC,214059.00,A,4629.33242,N,12222.52391,W,25.156,269.07,170119,,,A*47
$GPRMC,214059.20,A,4629.33237,N,12222.52599,W,25.768,268.78,170119,,,A*4B
$GPRMC,214059.40,A,4629.33231,N,12222.52814,W,26.526,269.22,170119,,,A*46
$GPRMC,214059.60,A,4629.33227,N,12222.53030,W,26.809,269.31,170119,,,A*4E
$GPRMC,214059.80,A,4629.33217,N,12222.53252,W,27.433,267.61,170119,,,A*4A
$GPRMC,214100.00,A,4629.33207,N,12222.53476,W,27.563,267.64,170119,,,A*4F
$GPRMC,214100.20,A,4629.33204,N,12222.53701,W,27.770,268.88,170119,,,A*40
$GPRMC,214100.40,A,4629.33199,N,12222.53934,W,28.604,268.86,170119,,,A*4A
$GPRMC,214100.60,A,4629.33194,N,12222.54165,W,28.675,268.46,170119,,,A*44
$GPRMC,214100.80,A,4629.33193,N,12222.54403,W,29.084,269.96,170119,,,A*4D
$GPRMC,214101.00,A,4629.33188,N,12222.54643,W,29.438,269.26,170119,,,A*40
$GPRMC,214101.20,A,4629.33184,N,12222.54883,W,29.551,269.60,170119,,,A*40
$GPRMC,214101.40,A,4629.33183,N,12222.55126,W,29.836,269.99,170119,,,A*4C
$GPRMC,214101.60,A,4629.33180,N,12222.55372,W,30.117,269.96,170119,,,A*43
$GPRMC,214101.80,A,4629.33179,N,12222.55616,W,30.049,269.70,170119,,,A*4E
$GPRMC,214102.00,A,4629.33178,N,12222.55863,W,30.422,269.79,170119,,,A*48
$GPRMC,214102.20,A,4629.33176,N,12222.56108,W,30.333,269.76,170119,,,A*4B
$GPRMC,214102.40,A,4629.33178,N,12222.56358,W,30.896,270.34,170119,,,A*4E
$GPRMC,214102.60,A,4629.33180,N,12222.56605,W,30.618,270.81,170119,,,A*40
$GPRMC,214102.80,A,4629.33184,N,12222.56845,W,30.055,271.14,170119,,,A*42
$GPRMC,214103.00,A,4629.33180,N,12222.57102,W,31.351,269.65,170119,,,A*4D
$GPRMC,214103.20,A,4629.33179,N,12222.57357,W,31.337,270.00,170119,,,D*45
$GPRMC,214103.40,A,4629.33178,N,12222.57605,W,30.801,269.86,170119,,,D*49
$GPRMC,214103.60,A,4629.33185,N,12222.57851,W,30.626,271.46,170119,,,D*48
$GPRMC,214103.80,A,4629.33186,N,12222.58098,W,30.636,270.13,170119,,,D*47
$GPRMC,214104.00,A,4629.33176,N,12222.58355,W,31.482,267.64,170119,,,D*4F
$GPRMC,214104.20,A,4629.33177,N,12222.58611,W,31.425,269.52,170119,,,D*4F
$GPRMC,214104.40,A,4629.33173,N,12222.58866,W,31.472,268.87,170119,,,D*48
$GPRMC,214104.60,A,4629.33184,N,12222.59111,W,30.496,272.23,170119,,,D*44
$GPRMC,214104.80,A,4629.33188,N,12222.59366,W,31.273,271.67,170119,,,D*4B
$GPRMC,214105.00,A,4629.33183,N,12222.59615,W,31.102,269.20,170119,,,D*47
$GPRMC,214105.20,A,4629.33172,N,12222.59861,W,30.796,267.32,170119,,,D*41
$GPRMC,214105.40,A,4629.33182,N,12222.60104,W,30.262,271.23,170119,,,D*41
$GPRMC,214105.60,A,4629.33182,N,12222.60360,W,31.294,270.28,170119,,,D*41
$GPRMC,214105.80,A,4629.33185,N,12222.60618,W,31.463,270.89,170119,,,D*47
$GPRMC,214106.00,A,4629.33180,N,12222.60881,W,32.018,269.18,170119,,,D*4C
$GPRMC,214106.20,A,4629.33176,N,12222.61139,W,31.850,268.78,170119,,,D*4C
$GPRMC,214106.40,A,4629.33175,N,12222.61401,W,31.895,269.60,170119,,,D*46
$GPRMC,214106.60,A,4629.33171,N,12222.61663,W,32.033,269.21,170119,,,D*44
$GPRMC,214106.80,A,4629.33170,N,12222.61928,W,32.317,269.73,170119,,,D*49
$GPRMC,214107.00,A,4629.33172,N,12222.62188,W,32.060,270.90,170119,,,D*45
$GPRMC,214107.20,A,4629.33170,N,12222.62454,W,32.435,269.60,170119,,,D*42
$GPRMC,214107.40,A,4629.33171,N,12222.62725,W,32.971,270.40,170119,,,D*47
$GPRMC,214107.60,A,4629.33172,N,12222.62991,W,32.728,270.21,170119,,,D*42
$GPRMC,214107.80,A,4629.33172,N,12222.63254,W,32.545,269.94,170119,,,D*40
$GPRMC,214108.00,A,4629.33176,N,12222.63513,W,32.190,271.18,170119,,,D*46
$GPRMC,214108.20,A,4629.33172,N,12222.63787,W,33.283,269.51,170119,,,D*4B
$GPRMC,214108.40,A,4629.33172,N,12222.64056,W,33.176,270.22,170119,,,D*44
$GPRMC,214108.60,A,4629.33178,N,12222.64320,W,32.837,271.62,170119,,,D*46
$GPRMC,214108.80,A,4629.33178,N,12222.64586,W,32.839,270.17,170119,,,D*4F
$GPRMC,214109.00,A,4629.33182,N,12222.64853,W,32.937,271.13,170119,,,D*4C
$GPRMC,214109.20,A,4629.33183,N,12222.65120,W,32.938,270.48,170119,,,D*43
$GPRMC,214109.40,A,4629.33178,N,12222.65392,W,33.390,269.29,170119,,,D*4C
$GPRMC,214109.60,A,4629.33178,N,12222.65657,W,32.798,270.06,170119,,,D*4A
$GPRMC,214109.80,A,4629.33180,N,12222.65920,W,32.580,270.54,170119,,,D*40
$GPRMC,214110.00,A,4629.33188,N,12222.66188,W,32.958,272.18,170119,,,D*42
$GPRMC,214110.20,A,4629.33194,N,12222.66450,W,32.579,272.05,170119,,,D*4E
$GPRMC,214110.40,A,4629.33202,N,12222.66712,W,32.453,272.24,170119,,,D*4B
$GPRMC,214110.60,A,4629.33202,N,12222.66975,W,32.469,270.76,170119,,,D*4A
$GPRMC,214110.80,A,4629.33201,N,12222.67239,W,32.684,269.84,170119,,,D*41
$GPRMC,214111.00,A,4629.33202,N,12222.67502,W,32.530,270.28,170119,,,D*46
$GPRMC,214111.20,A,4629.33209,N,12222.67770,W,32.983,271.71,170119,,,D*41
$GPRMC,214111.40,A,4629.33211,N,12222.68043,W,33.499,270.98,170119,,,D*47
$GPRMC,214111.60,A,4629.33211,N,12222.68319,W,33.844,270.38,170119,,,D*4F
$GPRMC,214111.80,A,4629.33215,N,12222.68590,W,33.450,270.90,170119,,,D*49
$GPRMC,214112.00,A,4629.33216,N,12222.68863,W,33.539,270.65,170119,,,D*44
$GPRMC,214112.20,A,4629.33217,N,12222.69138,W,33.686,270.61,170119,,,D*42
$GPRMC,214112.40,A,4629.33218,N,12222.69410,W,33.522,270.43,170119,,,D*49
$GPRMC,214112.60,A,4629.33216,N,12222.69685,W,33.680,270.00,170119,,,D*47
$GPRMC,214112.80,A,4629.33222,N,12222.69953,W,33.243,271.31,170119,,,D*42
$GPRMC,214113.00,A,4629.33230,N,12222.70218,W,32.964,271.98,170119,,,D*48
$GPRMC,214113.20,A,4629.33231,N,12222.70493,W,33.619,271.01,170119,,,D*4A
$GPRMC,214113.40,A,4629.33226,N,12222.70772,W,33.992,269.53,170119,,,D*44
$GPRMC,214113.60,A,4629.33223,N,12222.71049,W,34.085,269.61,170119,,,D*44
$GPRMC,214113.80,A,4629.33229,N,12222.71317,W,33.281,270.98,170119,,,D*47
$GPRMC,214114.00,A,4629.33230,N,12222.71589,W,33.358,270.40,170119,,,D*41
$GPRMC,214114.20,A,4629.33229,N,12222.71863,W,33.669,270.07,170119,,,D*46
$GPRMC,214114.40,A,4629.33228,N,12222.72135,W,33.443,269.73,170119,,,D*49
$GPRMC,214114.60,A,4629.33230,N,12222.72409,W,33.514,270.29,170119,,,D*4C
$GPRMC,214114.80,A,4629.33222,N,12222.72678,W,33.267,267.87,170119,,,D*44
$GPRMC,214115.00,A,4629.33226,N,12222.72946,W,33.127,270.66,170119,,,D*45
$GPRMC,214115.20,A,4629.33229,N,12222.73213,W,33.041,270.43,170119,,,D*44
$GPRMC,214115.40,A,4629.33231,N,12222.73481,W,33.040,270.61,170119,,,D*47
$GPRMC,214115.60,A,4629.33232,N,12222.73745,W,32.794,270.43,170119,,,D*42
$GPRMC,214115.80,A,4629.33234,N,12222.74012,W,32.990,270.50,170119,,,D*40
$GPRMC,214116.00,A,4629.33237,N,12222.74279,W,32.953,270.64,170119,,,D*4F
$GPRMC,214116.20,A,4629.33237,N,12222.74544,W,32.752,270.01,170119,,,D*48
$GPRMC,214116.40,A,4629.33241,N,12222.74809,W,32.741,270.74,170119,,,D*4B
$GPRMC,214116.60,A,4629.33244,N,12222.75072,W,32.558,270.76,170119,,,D*41
$GPRMC,214116.80,A,4629.33245,N,12222.75335,W,32.518,270.35,170119,,,D*4D
$GPRMC,214117.00,A,4629.33247,N,12222.75599,W,32.621,270.29,170119,,,D*42
$GPRMC,214117.20,A,4629.33251,N,12222.75859,W,32.252,270.60,170119,,,D*4B
$GPRMC,214117.40,A,4629.33258,N,12222.76116,W,31.939,271.23,170119,,,D*46
$GPRMC,214117.60,A,4629.33262,N,12222.76374,W,31.912,270.99,170119,,,D*42
$GPRMC,214117.80,A,4629.33262,N,12222.76634,W,32.137,270.43,170119,,,D*46
$GPRMC,214118.00,A,4629.33262,N,12222.76895,W,32.206,270.04,170119,,,D*46
$GPRMC,214118.20,A,4629.33262,N,12222.77154,W,32.010,270.39,170119,,,D*4A
$GPRMC,214118.40,A,4629.33263,N,12222.77410,W,31.643,270.74,170119,,,D*42
$GPRMC,214118.60,A,4629.33263,N,12222.77666,W,31.494,270.83,170119,,,D*43
$GPRMC,214118.80,A,4629.33265,N,12222.77916,W,30.895,270.77,170119,,,D*44
$GPRMC,214119.00,A,4629.33266,N,12222.78164,W,30.597,270.78,170119,,,D*4C
$GPRMC,214119.20,A,4629.33271,N,12222.78406,W,30.097,271.34,170119,,,D*45
$GPRMC,214119.40,A,4629.33273,N,12222.78645,W,29.823,271.32,170119,,,D*4D
$GPRMC,214119.60,A,4629.33277,N,12222.78880,W,29.200,271.70,170119,,,D*41
$GPRMC,214119.80,A,4629.33280,N,12222.79114,W,29.015,271.81,170119,,,D*4A
$GPRMC,214120.00,A,4629.33284,N,12222.79345,W,28.609,272.09,170119,,,D*43
$GPRMC,214120.20,A,4629.33293,N,12222.79575,W,28.413,273.01,170119,,,D*42
$GPRMC,214120.40,A,4629.33304,N,12222.79796,W,27.601,273.99,170119,,,D*4B
$GPRMC,214120.60,A,4629.33318,N,12222.80016,W,27.338,275.45,170119,,,D*45
$GPRMC,214120.80,A,4629.33345,N,12222.80218,W,25.910,279.70,170119,,,D*47
$GPRMC,214121.00,A,4629.33369,N,12222.80430,W,26.497,279.16,170119,,,D*4D
$GPRMC,214121.20,A,4629.33401,N,12222.80634,W,26.063,281.76,170119,,,D*4E
$GPRMC,214121.40,A,4629.33434,N,12222.80842,W,26.419,282.60,170119,,,D*4C
$GPRMC,214121.60,A,4629.33472,N,12222.81055,W,27.050,284.23,170119,,,D*4A
$GPRMC,214121.80,A,4629.33518,N,12222.81256,W,26.178,287.50,170119,,,D*45
$GPRMC,214122.00,A,4629.33565,N,12222.81452,W,25.523,288.45,170119,,,D*44
$GPRMC,214122.20,A,4629.33619,N,12222.81638,W,25.205,292.39,170119,,,D*43
$GPRMC,214122.40,A,4629.33681,N,12222.81819,W,25.101,295.90,170119,,,D*4A
$GPRMC,214122.60,A,4629.33759,N,12222.81992,W,24.781,301.09,170119,,,D*4D
$GPRMC,214122.80,A,4629.33820,N,12222.82166,W,24.337,298.36,170119,,,D*46
$GPRMC,214123.00,A,4629.33873,N,12222.82344,W,24.481,295.10,170119,,,D*48
$GPRMC,214123.20,A,4629.33960,N,12222.82498,W,24.190,304.42,170119,,,D*44
$GPRMC,214123.40,A,4629.34046,N,12222.82653,W,24.410,307.28,170119,,,D*4F
$GPRMC,214123.60,A,4629.34137,N,12222.82810,W,25.227,309.50,170119,,,D*41
$GPRMC,214123.80,A,4629.34234,N,12222.82956,W,25.434,312.24,170119,,,D*41
$GPRMC,214124.00,A,4629.34336,N,12222.83096,W,25.410,315.26,170119,,,D*4A
$GPRMC,214124.20,A,4629.34442,N,12222.83233,W,25.442,317.54,170119,,,D*41
$GPRMC,214124.40,A,4629.34543,N,12222.83374,W,25.082,317.07,170119,,,D*4B
$GPRMC,214124.60,A,4629.34636,N,12222.83513,W,24.187,315.67,170119,,,A*4B
$GPRMC,214124.80,A,4629.34744,N,12222.83649,W,25.146,318.21,170119,,,D*4B
$GPRMC,214125.00,A,4629.34845,N,12222.83779,W,24.850,318.63,170119,,,D*47
$GPRMC,214125.20,A,4629.34969,N,12222.83920,W,26.662,321.39,170119,,,D*40
$GPRMC,214125.40,A,4629.35077,N,12222.84058,W,26.435,319.67,170119,,,D*40
$GPRMC,214125.60,A,4629.35181,N,12222.84201,W,26.130,317.92,170119,,,D*40
$GPRMC,214125.80,A,4629.35284,N,12222.84348,W,26.212,316.13,170119,,,D*4F
$GPRMC,214126.00,A,4629.35387,N,12222.84501,W,26.443,315.02,170119,,,D*4C
$GPRMC,214126.20,A,4629.35487,N,12222.84642,W,26.136,314.84,170119,,,D*45
$GPRMC,214126.40,A,4629.35574,N,12222.84802,W,25.584,310.67,170119,,,D*43
$GPRMC,214126.60,A,4629.35658,N,12222.84961,W,24.970,309.06,170119,,,D*41
$GPRMC,214126.80,A,4629.35753,N,12222.85132,W,26.068,309.36,170119,,,A*4E
$GPRMC,214127.00,A,4629.35819,N,12222.85293,W,23.958,305.49,170119,,,D*40
$GPRMC,214127.20,A,4629.35912,N,12222.85461,W,26.285,306.69,170119,,,D*4C
$GPRMC,214127.40,A,4629.36015,N,12222.85646,W,28.471,307.62,170119,,,D*49
$GPRMC,214127.60,A,4629.36110,N,12222.85826,W,28.389,307.30,170119,,,D*40
$GPRMC,214127.80,A,4629.36203,N,12222.86007,W,28.314,306.76,170119,,,D*40
$GPRMC,214128.00,A,4629.36301,N,12222.86201,W,29.205,306.39,170119,,,A*4E
$GPRMC,214128.20,A,4629.36395,N,12222.86402,W,29.463,304.87,170119,,,D*40
$GPRMC,214128.40,A,4629.36469,N,12222.86614,W,29.819,299.59,170119,,,D*40
$GPRMC,214128.60,A,4629.36557,N,12222.86820,W,29.691,300.78,170119,,,D*4B
$GPRMC,214128.80,A,4629.36639,N,12222.87038,W,30.135,298.81,170119,,,D*49
$GPRMC,214129.00,A,4629.36729,N,12222.87256,W,30.856,299.97,170119,,,D*40
$GPRMC,214129.20,A,4629.36814,N,12222.87476,W,31.049,299.24,170119,,,D*48
$GPRMC,214129.40,A,4629.36897,N,12222.87697,W,31.073,298.37,170119,,,D*42
$GPRMC,214129.60,A,4629.36981,N,12222.87917,W,31.269,298.17,170119,,,D*4A
$GPRMC,214129.80,A,4629.37060,N,12222.88141,W,31.102,297.25,170119,,,D*47
$GPRMC,214130.00,A,4629.37145,N,12222.88357,W,30.583,298.71,170119,,,D*46
$GPRMC,214130.20,A,4629.37216,N,12222.88590,W,31.304,295.14,170119,,,D*4A
$GPRMC,214130.40,A,4629.37290,N,12222.88818,W,31.089,295.18,170119,,,D*45
$GPRMC,214130.60,A,4629.37366,N,12222.89037,W,30.775,296.15,170119,,,D*40
$GPRMC,214130.80,A,4629.37451,N,12222.89255,W,30.815,298.21,170119,,,D*4B
$GPRMC,214131.00,A,4629.37543,N,12222.89474,W,31.304,300.10,170119,,,D*4D
$GPRMC,214131.20,A,4629.37634,N,12222.89689,W,31.112,301.21,170119,,,D*4A
$GPRMC,214131.40,A,4629.37711,N,12222.89907,W,30.446,298.53,170119,,,D*42
$GPRMC,214131.60,A,4629.37796,N,12222.90125,W,30.827,298.90,170119,,,A*4E
$GPRMC,214131.80,A,4629.37888,N,12222.90341,W,31.124,300.56,170119,,,A*41
$GPRMC,214132.00,A,4629.37960,N,12222.90552,W,29.985,298.32,170119,,,D*44
$GPRMC,214132.20,A,4629.38039,N,12222.90761,W,29.685,298.56,170119,,,A*46
$GPRMC,214132.40,A,4629.38119,N,12222.90968,W,29.667,299.05,170119,,,A*4F
$GPRMC,214132.60,A,4629.38183,N,12222.91164,W,28.066,297.33,170119,,,A*46
$GPRMC,214132.80,A,4629.38249,N,12222.91361,W,27.717,296.50,170119,,,D*45
$GPRMC,214133.00,A,4629.38340,N,12222.91564,W,28.809,299.61,170119,,,A*40
$GPRMC,214133.20,A,4629.38445,N,12222.91769,W,30.024,303.26,170119,,,A*40
$GPRMC,214133.40,A,4629.38520,N,12222.91958,W,28.651,302.05,170119,,,D*40
$GPRMC,214133.60,A,4629.38611,N,12222.92163,W,29.690,301.80,170119,,,A*47
$GPRMC,214133.80,A,4629.38700,N,12222.92362,W,29.478,302.71,170119,,,A*42
$GPRMC,214134.00,A,4629.38796,N,12222.92552,W,29.273,304.64,170119,,,A*48
$GPRMC,214134.20,A,4629.38890,N,12222.92752,W,29.689,304.28,170119,,,A*48
$GPRMC,214134.40,A,4629.39007,N,12222.92945,W,30.383,308.15,170119,,,A*44
$GPRMC,214134.60,A,4629.39123,N,12222.93141,W,31.075,309.17,170119,,,A*44
$GPRMC,214134.80,A,4629.39232,N,12222.93343,W,31.373,308.64,170119,,,A*49
$GPRMC,214135.00,A,4629.39336,N,12222.93539,W,30.727,308.17,170119,,,A*4E
$GPRMC,214135.20,A,4629.39447,N,12222.93726,W,30.290,310.01,170119,,,D*43
$GPRMC,214135.40,A,4629.39550,N,12222.93918,W,29.634,308.61,170119,,,D*4C
$GPRMC,214135.60,A,4629.39656,N,12222.94110,W,29.470,308.51,170119,,,A*48
$GPRMC,214135.80,A,4629.39761,N,12222.94295,W,29.652,309.77,170119,,,D*4F
$GPRMC,214136.00,A,4629.39872,N,12222.94479,W,29.789,310.61,170119,,,D*45
$GPRMC,214136.20,A,4629.39982,N,12222.94648,W,29.139,312.41,170119,,,D*44
$GPRMC,214136.40,A,4629.40090,N,12222.94826,W,29.548,312.14,170119,,,D*42
$GPRMC,214136.60,A,4629.40196,N,12222.94990,W,28.709,314.01,170119,,,D*4F
$GPRMC,214136.80,A,4629.40308,N,12222.95152,W,28.682,315.88,170119,,,D*41
$GPRMC,214137.00,A,4629.40422,N,12222.95302,W,28.267,319.17,170119,,,D*45
$GPRMC,214137.20,A,4629.40530,N,12222.95454,W,27.829,317.33,170119,,,D*46
$GPRMC,214137.40,A,4629.40646,N,12222.95589,W,26.981,321.18,170119,,,D*4D
$GPRMC,214137.60,A,4629.40772,N,12222.95718,W,27.233,324.58,170119,,,A*44
$GPRMC,214137.80,A,4629.40894,N,12222.95839,W,26.660,325.94,170119,,,D*46
$GPRMC,214138.00,A,4629.41006,N,12222.95935,W,24.713,329.52,170119,,,D*4F
$GPRMC,214138.20,A,4629.41128,N,12222.96020,W,24.942,334.41,170119,,,A*4F
$GPRMC,214138.40,A,4629.41262,N,12222.96106,W,25.831,336.39,170119,,,A*48
$GPRMC,214138.60,A,4629.41396,N,12222.96183,W,25.766,338.83,170119,,,A*4F
$GPRMC,214138.80,A,4629.41526,N,12222.96256,W,25.723,339.15,170119,,,A*48
$GPRMC,214139.00,A,4629.41658,N,12222.96313,W,25.291,342.78,170119,,,D*45
$GPRMC,214139.20,A,4629.41792,N,12222.96359,W,25.084,346.36,170119,,,A*43
$GPRMC,214139.40,A,4629.41923,N,12222.96393,W,23.971,349.67,170119,,,A*49
$GPRMC,214139.60,A,4629.42056,N,12222.96421,W,24.012,351.57,170119,,,A*4C
$GPRMC,214139.80,A,4629.42196,N,12222.96450,W,24.930,352.15,170119,,,A*45
$GPRMC,214140.00,A,4629.42324,N,12222.96471,W,24.229,353.03,170119,,,A*4E
$GPRMC,214140.20,A,4629.42454,N,12222.96472,W,23.988,357.68,170119,,,A*41
$GPRMC,214140.40,A,4629.42584,N,12222.96482,W,23.069,357.39,170119,,,A*46
$GPRMC,214140.60,A,4629.42720,N,12222.96490,W,24.075,358.31,170119,,,A*46
$GPRMC,214140.80,A,4629.42856,N,12222.96498,W,24.487,357.91,170119,,,A*42
$GPRMC,214141.00,A,4629.42993,N,12222.96506,W,24.256,358.28,170119,,,A*42
$GPRMC,214141.20,A,4629.43133,N,12222.96509,W,24.975,358.60,170119,,,A*4A
$GPRMC,214141.40,A,4629.43275,N,12222.96514,W,24.875,358.71,170119,,,A*40
$GPRMC,214141.60,A,4629.43417,N,12222.96515,W,24.908,359.25,170119,,,A*4A
$GPRMC,214141.80,A,4629.43567,N,12222.96528,W,25.045,357.92,170119,,,A*4F
$GPRMC,214142.00,A,4629.43715,N,12222.96548,W,25.073,356.49,170119,,,A*47
$GPRMC,214142.20,A,4629.43865,N,12222.96556,W,25.254,358.11,170119,,,A*46
$GPRMC,214142.40,A,4629.44021,N,12222.96568,W,25.449,358.14,170119,,,A*4D
$GPRMC,214142.60,A,4629.44171,N,12222.96580,W,25.493,358.38,170119,,,A*44
$GPRMC,214142.80,A,4629.44320,N,12222.96584,W,25.755,359.45,170119,,,A*4A
$GPRMC,214143.00,A,4629.44466,N,12222.96587,W,25.812,359.45,170119,,,A*49
$GPRMC,214143.20,A,4629.44615,N,12222.96596,W,25.774,358.75,170119,,,A*40
$GPRMC,214143.40,A,4629.44765,N,12222.96602,W,26.010,359.01,170119,,,A*4A
$GPRMC,214143.60,A,4629.44916,N,12222.96601,W,26.183,0.16,170119,,,A*43
$GPRMC,214143.80,A,4629.45067,N,12222.96608,W,26.257,359.19,170119,,,A*40
$GPRMC,214144.00,A,4629.45222,N,12222.96612,W,26.521,359.55,170119,,,A*49
$GPRMC,214144.20,A,4629.45377,N,12222.96615,W,26.621,359.82,170119,,,A*44
$GPRMC,214144.40,A,4629.45537,N,12222.96624,W,26.886,359.50,170119,,,A*4E
$GPRMC,214144.60,A,4629.45693,N,12222.96635,W,26.956,358.98,170119,,,A*48
$GPRMC,214144.80,A,4629.45849,N,12222.96642,W,27.160,359.07,170119,,,A*44
$GPRMC,214145.00,A,4629.46007,N,12222.96650,W,27.439,359.01,170119,,,A*40
$GPRMC,214145.20,A,4629.46165,N,12222.96655,W,27.483,359.03,170119,,,A*41
$GPRMC,214145.40,A,4629.46324,N,12222.96668,W,27.582,358.13,170119,,,A*4E
$GPRMC,214145.60,A,4629.46481,N,12222.96674,W,27.792,358.44,170119,,,A*48
$GPRMC,214145.80,A,4629.46641,N,12222.96682,W,28.079,358.40,170119,,,A*48
$GPRMC,214146.00,A,4629.46800,N,12222.96689,W,28.139,358.15,170119,,,A*46
$GPRMC,214146.20,A,4629.46962,N,12222.96696,W,28.322,358.23,170119,,,A*42
$GPRMC,214146.40,A,4629.47124,N,12222.96704,W,28.442,358.22,170119,,,A*45
$GPRMC,214146.60,A,4629.47287,N,12222.96710,W,28.351,358.17,170119,,,A*4B
$GPRMC,214146.80,A,4629.47450,N,12222.96720,W,28.492,357.97,170119,,,A*45
$GPRMC,214147.00,A,4629.47612,N,12222.96734,W,28.360,357.48,170119,,,A*45
$GPRMC,214147.20,A,4629.47776,N,12222.96738,W,28.609,358.67,170119,,,A*40
$GPRMC,214147.40,A,4629.47940,N,12222.96749,W,28.584,357.94,170119,,,A*4E
$GPRMC,214147.60,A,4629.48103,N,12222.96758,W,28.626,358.15,170119,,,A*41
$GPRMC,214147.80,A,4629.48266,N,12222.96762,W,28.743,359.03,170119,,,A*42
$GPRMC,214148.00,A,4629.48429,N,12222.96770,W,28.747,358.75,170119,,,A*4F
$GPRMC,214148.20,A,4629.48593,N,12222.96776,W,28.970,359.05,170119,,,A*47
$GPRMC,214148.40,A,4629.48757,N,12222.96783,W,29.161,359.00,170119,,,A*4D
$GPRMC,214148.60,A,4629.48921,N,12222.96787,W,29.143,359.35,170119,,,A*42
$GPRMC,214148.80,A,4629.49086,N,12222.96791,W,29.165,359.04,170119,,,A*48
$GPRMC,214149.00,A,4629.49253,N,12222.96793,W,29.506,359.51,170119,,,A*48
$GPRMC,214149.20,A,4629.49419,N,12222.96807,W,29.505,358.62,170119,,,A*42
$GPRMC,214149.40,A,4629.49587,N,12222.96818,W,29.781,358.37,170119,,,A*42
$GPRMC,214149.60,A,4629.49755,N,12222.96824,W,30.033,358.91,170119,,,A*48
$GPRMC,214149.80,A,4629.49928,N,12222.96830,W,30.539,359.34,170119,,,A*46
$GPRMC,214150.00,A,4629.50100,N,12222.96836,W,30.845,359.05,170119,,,A*4E
$GPRMC,214150.20,A,4629.50274,N,12222.96839,W,31.026,359.40,170119,,,A*4E
$GPRMC,214150.40,A,4629.50448,N,12222.96850,W,31.192,358.61,170119,,,A*42
$GPRMC,214150.60,A,4629.50625,N,12222.96856,W,31.609,359.06,170119,,,A*4A
$GPRMC,214150.80,A,4629.50803,N,12222.96862,W,31.819,358.98,170119,,,A*40
$GPRMC,214151.00,A,4629.50982,N,12222.96875,W,32.004,358.30,170119,,,A*42
$GPRMC,214151.20,A,4629.51164,N,12222.96894,W,32.254,357.64,170119,,,A*47
$GPRMC,214151.40,A,4629.51347,N,12222.96908,W,32.615,357.87,170119,,,A*4A
$GPRMC,214151.60,A,4629.51533,N,12222.96916,W,33.078,358.47,170119,,,A*4D
$GPRMC,214151.80,A,4629.51720,N,12222.96923,W,33.241,358.80,170119,,,A*46
$GPRMC,214152.00,A,4629.51904,N,12222.96942,W,32.797,357.29,170119,,,A*41
$GPRMC,214152.20,A,4629.52091,N,12222.96951,W,33.121,358.27,170119,,,A*4C
$GPRMC,214152.40,A,4629.52278,N,12222.96963,W,33.318,358.36,170119,,,A*46
$GPRMC,214152.60,A,4629.52468,N,12222.96972,W,33.751,358.73,170119,,,A*4B
$GPRMC,214152.80,A,4629.52658,N,12222.96983,W,33.685,358.79,170119,,,A*48
$GPRMC,214153.00,A,4629.52847,N,12222.96992,W,33.732,358.86,170119,,,A*4C
$GPRMC,214153.20,A,4629.53040,N,12222.97000,W,34.126,358.63,170119,,,A*4C
$GPRMC,214153.40,A,4629.53231,N,12222.97008,W,34.177,358.78,170119,,,A*48
$GPRMC,214153.60,A,4629.53424,N,12222.97013,W,34.291,358.64,170119,,,A*44
$GPRMC,214153.80,A,4629.53620,N,12222.97019,W,34.832,358.55,170119,,,A*47
$GPRMC,214154.00,A,4629.53815,N,12222.97025,W,34.879,358.54,170119,,,A*41
$GPRMC,214154.20,A,4629.54009,N,12222.97032,W,34.666,358.68,170119,,,A*48
$GPRMC,214154.40,A,4629.54201,N,12222.97037,W,34.409,358.98,170119,,,A*45
$GPRMC,214154.60,A,4629.54395,N,12222.97043,W,34.497,359.05,170119,,,A*4A
$GPRMC,214154.80,A,4629.54589,N,12222.97046,W,34.712,359.17,170119,,,A*47
$GPRMC,214155.00,A,4629.54787,N,12222.97053,W,35.087,358.96,170119,,,A*44
$GPRMC,214155.20,A,4629.54985,N,12222.97057,W,35.276,358.97,170119,,,A*43
$GPRMC,214155.40,A,4629.55186,N,12222.97065,W,35.755,358.66,170119,,,A*44
$GPRMC,214155.60,A,4629.55387,N,12222.97073,W,35.948,358.65,170119,,,A*43
$GPRMC,214155.80,A,4629.55589,N,12222.97080,W,36.198,358.68,170119,,,A*42
$GPRMC,214156.00,A,4629.55794,N,12222.97089,W,36.436,358.40,170119,,,A*45
$GPRMC,214156.20,A,4629.55998,N,12222.97099,W,36.653,358.36,170119,,,A*44
$GPRMC,214156.40,A,4629.56204,N,12222.97108,W,36.704,358.38,170119,,,A*4B
$GPRMC,214156.60,A,4629.56412,N,12222.97116,W,36.829,358.43,170119,,,A*4B
$GPRMC,214156.80,A,4629.56619,N,12222.97124,W,36.846,358.33,170119,,,A*43
$GPRMC,214157.00,A,4629.56824,N,12222.97131,W,36.749,358.20,170119,,,A*4C
$GPRMC,214157.20,A,4629.57031,N,12222.97139,W,36.794,358.05,170119,,,A*4C
$GPRMC,214157.40,A,4629.57237,N,12222.97150,W,36.773,357.83,170119,,,A*49
$GPRMC,214157.60,A,4629.57441,N,12222.97160,W,36.493,357.90,170119,,,A*40
$GPRMC,214157.80,A,4629.57644,N,12222.97169,W,36.414,357.85,170119,,,A*4B
$GPRMC,214158.00,A,4629.57848,N,12222.97178,W,36.216,357.93,170119,,,A*4D
$GPRMC,214158.20,A,4629.58053,N,12222.97188,W,36.113,358.05,170119,,,A*4B
$GPRMC,214158.40,A,4629.58255,N,12222.97197,W,35.944,358.03,170119,,,A*48
$GPRMC,214158.60,A,4629.58454,N,12222.97205,W,35.805,358.07,170119,,,A*45
$GPRMC,214158.80,A,4629.58654,N,12222.97213,W,35.694,358.09,170119,,,A*46
$GPRMC,214159.00,A,4629.58853,N,12222.97221,W,35.662,358.08,170119,,,A*4F
$GPRMC,214159.20,A,4629.59051,N,12222.97228,W,35.601,358.21,170119,,,A*41
$GPRMC,214159.40,A,4629.59249,N,12222.97236,W,35.671,358.27,170119,,,A*42
$GPRMC,214159.60,A,4629.59448,N,12222.97243,W,35.659,358.21,170119,,,A*49
$GPRMC,214159.80,A,4629.59649,N,12222.97250,W,35.784,358.23,170119,,,A*45
$GPRMC,214200.00,A,4629.59848,N,12222.97257,W,35.790,358.30,170119,,,A*4D
$GPRMC,214200.20,A,4629.60049,N,12222.97264,W,35.879,358.47,170119,,,A*44
$GPRMC,214200.40,A,4629.60247,N,12222.97270,W,35.617,358.41,170119,,,A*4B
$GPRMC,214200.60,A,4629.60446,N,12222.97277,W,35.632,358.45,170119,,,A*4A
$GPRMC,214200.80,A,4629.60646,N,12222.97284,W,35.790,358.33,170119,,,A*42
$GPRMC,214201.00,A,4629.60846,N,12222.97291,W,35.786,358.29,170119,,,A*4D
$GPRMC,214201.20,A,4629.61045,N,12222.97299,W,35.852,358.28,170119,,,A*4A
$GPRMC,214201.40,A,4629.61246,N,12222.97306,W,35.940,358.36,170119,,,A*47
$GPRMC,214201.60,A,4629.61446,N,12222.97314,W,36.020,358.17,170119,,,A*4F
$GPRMC,214201.80,A,4629.61646,N,12222.97320,W,35.937,358.38,170119,,,A*45
$GPRMC,214202.00,A,4629.61847,N,12222.97326,W,35.995,358.59,170119,,,A*48
$GPRMC,214202.20,A,4629.62047,N,12222.97333,W,35.973,358.60,170119,,,A*47
$GPRMC,214202.40,A,4629.62247,N,12222.97341,W,35.904,358.28,170119,,,A*4A
$GPRMC,214202.60,A,4629.62447,N,12222.97348,W,35.824,358.32,170119,,,A*4F
$GPRMC,214202.80,A,4629.62647,N,12222.97355,W,35.956,358.48,170119,,,A*46
$GPRMC,214203.00,A,4629.62846,N,12222.97363,W,35.822,358.36,170119,,,A*4E
$GPRMC,214203.20,A,4629.63045,N,12222.97369,W,35.696,358.56,170119,,,A*4B
$GPRMC,214203.40,A,4629.63244,N,12222.97377,W,35.679,358.41,170119,,,A*46
$GPRMC,214203.60,A,4629.63443,N,12222.97384,W,35.679,358.40,170119,,,A*48
$GPRMC,214203.80,A,4629.63641,N,12222.97392,W,35.650,358.38,170119,,,A*45
$GPRMC,214204.00,A,4629.63840,N,12222.97400,W,35.631,358.38,170119,,,A*4E
$GPRMC,214204.20,A,4629.64037,N,12222.97408,W,35.414,358.47,170119,,,A*46
$GPRMC,214204.40,A,4629.64233,N,12222.97415,W,35.318,358.38,170119,,,A*49
$GPRMC,214204.60,A,4629.64430,N,12222.97423,W,35.330,358.36,170119,,,A*4F
$GPRMC,214204.80,A,4629.64625,N,12222.97430,W,35.168,358.48,170119,,,A*43
$GPRMC,214205.00,A,4629.64820,N,12222.97438,W,35.100,358.38,170119,,,A*40
$GPRMC,214205.20,A,4629.65016,N,12222.97445,W,35.210,358.37,170119,,,A*49
$GPRMC,214205.40,A,4629.65212,N,12222.97453,W,35.155,358.32,170119,,,A*49
$GPRMC,214205.60,A,4629.65407,N,12222.97462,W,35.159,358.16,170119,,,A*41
$GPRMC,214205.80,A,4629.65601,N,12222.97470,W,34.963,358.12,170119,,,A*4C
$GPRMC,214206.00,A,4629.65795,N,12222.97479,W,34.876,358.07,170119,,,A*43
$GPRMC,214206.20,A,4629.65987,N,12222.97489,W,34.739,357.93,170119,,,A*45
$GPRMC,214206.40,A,4629.66180,N,12222.97501,W,34.701,357.59,170119,,,A*43
$GPRMC,214206.60,A,4629.66371,N,12222.97512,W,34.520,357.72,170119,,,A*47
$GPRMC,214206.80,A,4629.66562,N,12222.97522,W,34.440,357.82,170119,,,A*46
$GPRMC,214207.00,A,4629.66751,N,12222.97532,W,34.217,357.86,170119,,,A*4C
$GPRMC,214207.20,A,4629.66940,N,12222.97542,W,34.122,357.70,170119,,,A*4B
$GPRMC,214207.40,A,4629.67129,N,12222.97552,W,33.983,357.91,170119,,,A*41
$GPRMC,214207.60,A,4629.67316,N,12222.97561,W,33.824,357.90,170119,,,A*40
$GPRMC,214207.80,A,4629.67503,N,12222.97572,W,33.648,357.82,170119,,,A*49
$GPRMC,214208.00,A,4629.67689,N,12222.97581,W,33.469,358.00,170119,,,A*47
$GPRMC,214208.20,A,4629.67875,N,12222.97589,W,33.402,357.83,170119,,,D*4C
$GPRMC,214208.40,A,4629.68059,N,12222.97596,W,33.186,357.88,170119,,,D*4F
$GPRMC,214208.60,A,4629.68243,N,12222.97604,W,32.979,357.89,170119,,,D*44
$GPRMC,214208.80,A,4629.68425,N,12222.97612,W,32.771,357.87,170119,,,D*43
$GPRMC,214209.00,A,4629.68607,N,12222.97621,W,32.621,357.84,170119,,,D*4F
$GPRMC,214209.20,A,4629.68788,N,12222.97630,W,32.533,357.85,170119,,,D*4A
$GPRMC,214209.40,A,4629.68968,N,12222.97639,W,32.280,357.78,170119,,,D*48
$GPRMC,214209.60,A,4629.69148,N,12222.97647,W,32.187,358.02,170119,,,D*4E
$GPRMC,214209.80,A,4629.69328,N,12222.97653,W,32.313,358.44,170119,,,D*4C
$GPRMC,214210.00,A,4629.69507,N,12222.97662,W,32.131,357.93,170119,,,D*42
$GPRMC,214210.20,A,4629.69685,N,12222.97672,W,31.895,357.76,170119,,,D*47
$GPRMC,214210.40,A,4629.69862,N,12222.97679,W,31.937,358.07,170119,,,D*4D
$GPRMC,214210.60,A,4629.70043,N,12222.97684,W,32.275,358.47,170119,,,D*44
$GPRMC,214210.80,A,4629.70223,N,12222.97690,W,32.303,358.58,170119,,,D*45
$GPRMC,214211.00,A,4629.70405,N,12222.97695,W,32.575,358.72,170119,,,D*44
$GPRMC,214211.20,A,4629.70588,N,12222.97699,W,32.783,358.92,170119,,,D*4B
$GPRMC,214211.40,A,4629.70771,N,12222.97704,W,32.795,358.46,170119,,,D*42
$GPRMC,214211.60,A,4629.70953,N,12222.97709,W,32.764,358.79,170119,,,D*41
$GPRMC,214211.80,A,4629.71134,N,12222.97720,W,32.522,357.60,170119,,,D*4B
$GPRMC,214212.00,A,4629.71317,N,12222.97725,W,32.800,358.50,170119,,,D*47
$GPRMC,214212.20,A,4629.71501,N,12222.97723,W,32.931,359.79,170119,,,D*4B
$GPRMC,214212.40,A,4629.71681,N,12222.97720,W,32.387,0.39,170119,,,D*49
$GPRMC,214212.60,A,4629.71856,N,12222.97714,W,31.700,1.02,170119,,,D*49
$GPRMC,214212.80,A,4629.72029,N,12222.97703,W,31.193,1.98,170119,,,D*4D
$GPRMC,214213.00,A,4629.72211,N,12222.97693,W,32.285,2.08,170119,,,D*48
$GPRMC,214213.20,A,4629.72393,N,12222.97680,W,32.572,2.61,170119,,,D*43
$GPRMC,214213.40,A,4629.72570,N,12222.97664,W,32.054,3.26,170119,,,D*47
$GPRMC,214213.60,A,4629.72754,N,12222.97647,W,32.876,3.62,170119,,,D*48
$GPRMC,214213.80,A,4629.72939,N,12222.97628,W,33.155,3.92,170119,,,D*4C
$GPRMC,214214.00,A,4629.73123,N,12222.97602,W,33.336,5.17,170119,,,D*45
$GPRMC,214214.20,A,4629.73309,N,12222.97573,W,33.560,6.02,170119,,,D*4A
$GPRMC,214214.40,A,4629.73494,N,12222.97533,W,33.614,7.99,170119,,,D*48
$GPRMC,214214.60,A,4629.73678,N,12222.97492,W,33.595,8.70,170119,,,D*42
$GPRMC,214214.80,A,4629.73862,N,12222.97444,W,33.668,10.18,170119,,,D*74
$GPRMC,214215.00,A,4629.74047,N,12222.97392,W,33.690,10.96,170119,,,D*78
$GPRMC,214215.20,A,4629.74234,N,12222.97332,W,33.924,12.24,170119,,,D*7D
$GPRMC,214215.40,A,4629.74419,N,12222.97266,W,33.922,13.54,170119,,,D*72
$GPRMC,214215.60,A,4629.74603,N,12222.97191,W,34.018,15.34,170119,,,D*75
$GPRMC,214215.80,A,4629.74782,N,12222.97110,W,33.898,16.68,170119,,,D*77
$GPRMC,214216.00,A,4629.74960,N,12222.97020,W,33.920,18.50,170119,,,D*7B
$GPRMC,214216.20,A,4629.75136,N,12222.96923,W,33.952,20.03,170119,,,D*70
$GPRMC,214216.40,A,4629.75310,N,12222.96821,W,33.903,21.41,170119,,,D*70
$GPRMC,214216.60,A,4629.75480,N,12222.96709,W,33.894,23.13,170119,,,D*73
$GPRMC,214216.80,A,4629.75649,N,12222.96592,W,33.840,24.82,170119,,,D*7C
$GPRMC,214217.00,A,4629.75817,N,12222.96470,W,33.909,26.03,170119,,,D*7A
$GPRMC,214217.20,A,4629.75985,N,12222.96342,W,34.216,27.25,170119,,,D*73
$GPRMC,214217.40,A,4629.76151,N,12222.96208,W,33.984,28.41,170119,,,D*72
$GPRMC,214217.60,A,4629.76313,N,12222.96068,W,33.837,30.21,170119,,,D*76
$GPRMC,214217.80,A,4629.76472,N,12222.95921,W,33.719,31.83,170119,,,D*75
$GPRMC,214218.00,A,4629.76628,N,12222.95769,W,33.677,32.95,170119,,,D*70
$GPRMC,214218.20,A,4629.76783,N,12222.95613,W,33.665,34.34,170119,,,D*70
$GPRMC,214218.40,A,4629.76936,N,12222.95453,W,33.750,35.64,170119,,,D*73
$GPRMC,214218.60,A,4629.77086,N,12222.95288,W,33.866,36.78,170119,,,D*76
$GPRMC,214218.80,A,4629.77232,N,12222.95120,W,33.509,38.35,170119,,,D*77
$GPRMC,214219.00,A,4629.77376,N,12222.94945,W,33.727,39.51,170119,,,D*78
$GPRMC,214219.20,A,4629.77518,N,12222.94769,W,33.591,40.32,170119,,,D*70
$GPRMC,214219.40,A,4629.77659,N,12222.94589,W,33.704,41.08,170119,,,D*7A
$GPRMC,214219.60,A,4629.77800,N,12222.94404,W,33.914,41.83,170119,,,D*72
$GPRMC,214219.80,A,4629.77940,N,12222.94224,W,33.672,42.07,170119,,,D*7D
$GPRMC,214220.00,A,4629.78078,N,12222.94047,W,33.342,42.00,170119,,,D*74
$GPRMC,214220.20,A,4629.78216,N,12222.93863,W,33.653,42.69,170119,,,D*7F
$GPRMC,214220.40,A,4629.78354,N,12222.93678,W,33.791,42.94,170119,,,D*77
$GPRMC,214220.60,A,4629.78491,N,12222.93493,W,33.756,43.07,170119,,,D*7C
$GPRMC,214220.80,A,4629.78626,N,12222.93304,W,33.818,43.77,170119,,,D*77
$GPRMC,214221.00,A,4629.78761,N,12222.93119,W,33.674,43.46,170119,,,D*74
$GPRMC,214221.20,A,4629.78900,N,12222.92932,W,34.105,43.23,170119,,,D*7A
$GPRMC,214221.40,A,4629.79031,N,12222.92742,W,33.592,44.77,170119,,,D*74
$GPRMC,214221.60,A,4629.79170,N,12222.92562,W,33.639,43.29,170119,,,D*7C
$GPRMC,214221.80,A,4629.79306,N,12222.92383,W,33.445,42.98,170119,,,D*7A
$GPRMC,214222.00,A,4629.79447,N,12222.92199,W,33.972,42.62,170119,,,A*73
$GPRMC,214222.20,A,4629.79588,N,12222.92016,W,34.189,42.32,170119,,,D*7E
$GPRMC,214222.40,A,4629.79730,N,12222.91830,W,34.376,42.49,170119,,,A*7D
$GPRMC,214222.60,A,4629.79869,N,12222.91642,W,34.291,42.89,170119,,,A*73
$GPRMC,214222.80,A,4629.80000,N,12222.91455,W,33.611,43.58,170119,,,A*7E
$GPRMC,214223.00,A,4629.80137,N,12222.91268,W,33.753,43.48,170119,,,A*7C
$GPRMC,214223.20,A,4629.80271,N,12222.91084,W,33.677,44.09,170119,,,D*7F
$GPRMC,214223.40,A,4629.80413,N,12222.90898,W,34.213,42.53,170119,,,A*72
$GPRMC,214223.60,A,4629.80554,N,12222.90712,W,34.276,42.20,170119,,,D*7D
$GPRMC,214223.80,A,4629.80696,N,12222.90521,W,34.675,42.28,170119,,,D*73
$GPRMC,214224.00,A,4629.80839,N,12222.90335,W,34.709,42.08,170119,,,D*7C
$GPRMC,214224.20,A,4629.80983,N,12222.90148,W,34.870,41.86,170119,,,D*72
$GPRMC,214224.40,A,4629.81127,N,12222.89961,W,34.843,41.92,170119,,,D*7D
$GPRMC,214224.60,A,4629.81271,N,12222.89774,W,34.952,41.89,170119,,,D*7E
$GPRMC,214224.80,A,4629.81416,N,12222.89585,W,35.040,42.21,170119,,,D*71
$GPRMC,214225.00,A,4629.81560,N,12222.89394,W,35.226,42.23,170119,,,D*7E
$GPRMC,214225.20,A,4629.81704,N,12222.89205,W,35.075,42.23,170119,,,D*71
$GPRMC,214225.40,A,4629.81846,N,12222.89013,W,35.047,42.55,170119,,,D*7B
$GPRMC,214225.60,A,4629.81988,N,12222.88821,W,35.131,42.60,170119,,,D*74
$GPRMC,214225.80,A,4629.82134,N,12222.88628,W,35.584,42.55,170119,,,D*7D
$GPRMC,214226.00,A,4629.82281,N,12222.88435,W,35.751,42.26,170119,,,D*7B
$GPRMC,214226.20,A,4629.82429,N,12222.88242,W,35.857,42.42,170119,,,D*70
$GPRMC,214226.40,A,4629.82577,N,12222.88061,W,35.315,42.10,170119,,,D*75
$GPRMC,214226.60,A,4629.82722,N,12222.87863,W,35.882,43.20,170119,,,D*77
$GPRMC,214226.80,A,4629.82870,N,12222.87672,W,35.900,43.00,170119,,,D*76
$GPRMC,214227.00,A,4629.83023,N,12222.87480,W,36.373,42.27,170119,,,D*76
$GPRMC,214227.20,A,4629.83173,N,12222.87291,W,36.115,42.51,170119,,,D*75
$GPRMC,214227.40,A,4629.83319,N,12222.87092,W,36.283,43.79,170119,,,D*7B
$GPRMC,214227.60,A,4629.83467,N,12222.86887,W,36.882,43.46,170119,,,D*7D
$GPRMC,214227.80,A,4629.83614,N,12222.86679,W,36.911,43.66,170119,,,D*73
$GPRMC,214228.00,A,4629.83762,N,12222.86476,W,36.999,43.52,170119,,,D*7E
$GPRMC,214228.20,A,4629.83912,N,12222.86271,W,37.354,43.28,170119,,,D*73
$GPRMC,214228.40,A,4629.84061,N,12222.86064,W,37.352,43.64,170119,,,D*77
$GPRMC,214228.60,A,4629.84211,N,12222.85854,W,37.513,43.46,170119,,,D*7B
$GPRMC,214228.80,A,4629.84360,N,12222.85649,W,37.376,43.94,170119,,,D*7A
$GPRMC,214229.00,A,4629.84509,N,12222.85433,W,37.591,44.13,170119,,,D*72
$GPRMC,214229.20,A,4629.84659,N,12222.85222,W,37.664,43.64,170119,,,D*7E
$GPRMC,214229.40,A,4629.84808,N,12222.85010,W,37.793,43.58,170119,,,D*77
$GPRMC,214229.60,A,4629.84957,N,12222.84801,W,37.524,44.14,170119,,,D*76
$GPRMC,214229.80,A,4629.85102,N,12222.84592,W,37.184,44.75,170119,,,D*7F
$GPRMC,214230.00,A,4629.85249,N,12222.84385,W,37.216,44.49,170119,,,D*74
$GPRMC,214230.20,A,4629.85395,N,12222.84178,W,37.031,44.52,170119,,,D*7B
$GPRMC,214230.40,A,4629.85540,N,12222.83969,W,37.070,44.91,170119,,,D*76
$GPRMC,214230.60,A,4629.85683,N,12222.83759,W,36.814,45.25,170119,,,D*70
$GPRMC,214230.80,A,4629.85829,N,12222.83552,W,36.930,44.94,170119,,,D*75
$GPRMC,214231.00,A,4629.85974,N,12222.83347,W,36.745,45.02,170119,,,D*75
$GPRMC,214231.20,A,4629.86120,N,12222.83142,W,36.869,45.18,170119,,,D*70
$GPRMC,214231.40,A,4629.86266,N,12222.82936,W,36.973,45.21,170119,,,D*7D
$GPRMC,214231.60,A,4629.86415,N,12222.82732,W,37.062,44.73,170119,,,D*79
$GPRMC,214231.80,A,4629.86563,N,12222.82523,W,37.235,44.68,170119,,,D*7F
$GPRMC,214232.00,A,4629.86711,N,12222.82310,W,37.626,44.86,170119,,,D*73
$GPRMC,214232.20,A,4629.86859,N,12222.82098,W,37.589,45.31,170119,,,D*7A
$GPRMC,214232.40,A,4629.87009,N,12222.81885,W,37.973,44.91,170119,,,D*75
$GPRMC,214232.60,A,4629.87159,N,12222.81669,W,38.196,44.80,170119,,,D*73
$GPRMC,214232.80,A,4629.87316,N,12222.81456,W,38.788,43.72,170119,,,D*79
$GPRMC,214233.00,A,4629.87468,N,12222.81239,W,38.661,44.54,170119,,,D*74
$GPRMC,214233.20,A,4629.87619,N,12222.81021,W,38.650,44.90,170119,,,D*73
$GPRMC,214233.40,A,4629.87771,N,12222.80804,W,38.732,44.83,170119,,,D*73
$GPRMC,214233.60,A,4629.87923,N,12222.80585,W,38.837,44.91,170119,,,D*75
$GPRMC,214233.80,A,4629.88080,N,12222.80368,W,39.137,43.75,170119,,,D*74
$GPRMC,214234.00,A,4629.88238,N,12222.80147,W,39.398,43.50,170119,,,D*75
$GPRMC,214234.20,A,4629.88395,N,12222.79928,W,39.395,43.55,170119,,,D*7E
$GPRMC,214234.40,A,4629.88550,N,12222.79707,W,39.347,44.04,170119,,,D*78
$GPRMC,214234.60,A,4629.88705,N,12222.79487,W,39.194,44.32,170119,,,D*7A
$GPRMC,214234.80,A,4629.88858,N,12222.79261,W,39.311,44.75,170119,,,D*71
$GPRMC,214235.00,A,4629.89009,N,12222.79033,W,39.121,45.46,170119,,,D*70
$GPRMC,214235.20,A,4629.89158,N,12222.78807,W,39.073,45.80,170119,,,D*75
$GPRMC,214235.40,A,4629.89307,N,12222.78578,W,38.976,46.09,170119,,,D*71
$GPRMC,214235.60,A,4629.89457,N,12222.78349,W,38.983,46.17,170119,,,D*70
$GPRMC,214235.80,A,4629.89607,N,12222.78124,W,38.849,45.76,170119,,,D*73
$GPRMC,214236.00,A,4629.89753,N,12222.77897,W,38.585,46.36,170119,,,D*7C
$GPRMC,214236.20,A,4629.89900,N,12222.77672,W,38.572,46.57,170119,,,D*7C
$GPRMC,214236.40,A,4629.90048,N,12222.77449,W,38.708,46.31,170119,,,D*72
$GPRMC,214236.60,A,4629.90196,N,12222.77227,W,38.476,46.24,170119,,,D*72
$GPRMC,214236.80,A,4629.90346,N,12222.77003,W,38.899,46.17,170119,,,D*7A
$GPRMC,214237.00,A,4629.90496,N,12222.76779,W,38.867,45.94,170119,,,D*7B
$GPRMC,214237.20,A,4629.90645,N,12222.76549,W,39.166,46.39,170119,,,D*79
$GPRMC,214237.40,A,4629.90798,N,12222.76322,W,39.270,45.89,170119,,,D*79
$GPRMC,214237.60,A,4629.90948,N,12222.76094,W,39.295,46.11,170119,,,D*7F
$GPRMC,214237.80,A,4629.91098,N,12222.75865,W,39.318,46.45,170119,,,D*74
$GPRMC,214238.00,A,4629.91249,N,12222.75637,W,39.373,46.35,170119,,,D*7E
$GPRMC,214238.20,A,4629.91403,N,12222.75423,W,38.900,45.07,170119,,,D*7E
$GPRMC,214238.40,A,4629.91556,N,12222.75193,W,39.505,46.02,170119,,,D*79
$GPRMC,214238.60,A,4629.91709,N,12222.74959,W,39.873,46.66,170119,,,D*72
$GPRMC,214238.80,A,4629.91861,N,12222.74727,W,39.762,46.30,170119,,,D*76
$GPRMC,214239.00,A,4629.92013,N,12222.74494,W,39.827,46.47,170119,,,D*74
$GPRMC,214239.20,A,4629.92166,N,12222.74262,W,39.879,46.28,170119,,,D*78
$GPRMC,214239.40,A,4629.92320,N,12222.74036,W,39.575,45.90,170119,,,D*7C
$GPRMC,214239.60,A,4629.92472,N,12222.73810,W,39.359,45.61,170119,,,D*73
$GPRMC,214239.80,A,4629.92624,N,12222.73586,W,39.171,45.66,170119,,,D*71
$GPRMC,214240.00,A,4629.92776,N,12222.73363,W,39.040,45.77,170119,,,D*7F
$GPRMC,214240.20,A,4629.92926,N,12222.73143,W,38.635,45.46,170119,,,D*71
$GPRMC,214240.40,A,4629.93074,N,12222.72912,W,39.026,46.47,170119,,,D*72
$GPRMC,214240.60,A,4629.93221,N,12222.72689,W,38.586,46.46,170119,,,D*70
$GPRMC,214240.80,A,4629.93369,N,12222.72471,W,38.275,46.19,170119,,,D*77
$GPRMC,214241.00,A,4629.93516,N,12222.72258,W,37.767,46.00,170119,,,D*7C
$GPRMC,214241.20,A,4629.93662,N,12222.72046,W,37.537,46.08,170119,,,D*7C
$GPRMC,214241.40,A,4629.93808,N,12222.71837,W,37.329,45.90,170119,,,D*7E
$GPRMC,214241.60,A,4629.93953,N,12222.71628,W,37.205,46.09,170119,,,D*7F
$GPRMC,214241.80,A,4629.94095,N,12222.71406,W,37.525,46.66,170119,,,D*77
$GPRMC,214242.00,A,4629.94238,N,12222.71194,W,37.135,46.15,170119,,,D*76
$GPRMC,214242.20,A,4629.94379,N,12222.70973,W,37.270,46.75,170119,,,D*74
$GPRMC,214242.40,A,4629.94521,N,12222.70756,W,37.218,46.68,170119,,,D*72
$GPRMC,214242.60,A,4629.94663,N,12222.70549,W,36.547,46.42,170119,,,D*7D
$GPRMC,214242.80,A,4629.94800,N,12222.70332,W,36.492,47.09,170119,,,D*75
$GPRMC,214243.00,A,4629.94936,N,12222.70114,W,36.433,47.47,170119,,,D*7F
$GPRMC,214243.20,A,4629.95070,N,12222.69901,W,35.737,47.37,170119,,,D*70
$GPRMC,214243.40,A,4629.95201,N,12222.69687,W,35.329,47.91,170119,,,D*74
$GPRMC,214243.60,A,4629.95334,N,12222.69482,W,35.247,47.26,170119,,,D*73
$GPRMC,214243.80,A,4629.95461,N,12222.69268,W,34.897,48.98,170119,,,D*74
$GPRMC,214244.00,A,4629.95583,N,12222.69055,W,34.413,49.71,170119,,,D*7C
$GPRMC,214244.20,A,4629.95706,N,12222.68852,W,33.885,49.04,170119,,,D*79
$GPRMC,214244.40,A,4629.95827,N,12222.68652,W,33.350,49.43,170119,,,D*7D
$GPRMC,214244.60,A,4629.95942,N,12222.68446,W,32.955,50.53,170119,,,D*7D
$GPRMC,214244.80,A,4629.96057,N,12222.68250,W,32.379,50.68,170119,,,D*70
$GPRMC,214245.00,A,4629.96163,N,12222.68031,W,32.945,54.07,170119,,,D*72
$GPRMC,214245.20,A,4629.96266,N,12222.67800,W,33.688,56.28,170119,,,D*73
$GPRMC,214245.40,A,4629.96360,N,12222.67580,W,32.629,58.58,170119,,,D*74
$GPRMC,214245.60,A,4629.96451,N,12222.67343,W,33.510,60.27,170119,,,D*71
$GPRMC,214245.80,A,4629.96534,N,12222.67100,W,33.584,63.14,170119,,,D*76
$GPRMC,214246.00,A,4629.96612,N,12222.66851,W,33.689,64.57,170119,,,D*78
$GPRMC,214246.20,A,4629.96684,N,12222.66603,W,33.743,66.73,170119,,,D*7F
$GPRMC,214246.40,A,4629.96756,N,12222.66340,W,34.364,66.74,170119,,,D*74
$GPRMC,214246.60,A,4629.96833,N,12222.66072,W,34.896,65.68,170119,,,D*70
$GPRMC,214246.80,A,4629.96894,N,12222.65812,W,34.162,68.80,170119,,,D*77
$GPRMC,214247.00,A,4629.96951,N,12222.65543,W,34.603,71.17,170119,,,D*79
$GPRMC,214247.20,A,4629.96997,N,12222.65270,W,34.466,74.18,170119,,,D*7D
$GPRMC,214247.40,A,4629.97052,N,12222.64991,W,35.359,73.87,170119,,,D*74
$GPRMC,214247.60,A,4629.97107,N,12222.64706,W,36.203,74.78,170119,,,D*7D
$GPRMC,214247.80,A,4629.97149,N,12222.64420,W,35.288,76.21,170119,,,D*70
$GPRMC,214248.00,A,4629.97202,N,12222.64131,W,36.088,74.60,170119,,,D*78
$GPRMC,214248.20,A,4629.97237,N,12222.63839,W,36.458,78.68,170119,,,D*77
$GPRMC,214248.40,A,4629.97276,N,12222.63555,W,35.786,78.93,170119,,,D*74
$GPRMC,214248.60,A,4629.97299,N,12222.63254,W,37.051,82.79,170119,,,D*7F
$GPRMC,214248.80,A,4629.97321,N,12222.62962,W,36.663,84.33,170119,,,D*72
$GPRMC,214249.00,A,4629.97335,N,12222.62665,W,36.765,85.90,170119,,,D*79
$GPRMC,214249.20,A,4629.97355,N,12222.62368,W,36.552,84.69,170119,,,D*74
$GPRMC,214249.40,A,4629.97365,N,12222.62067,W,36.908,87.11,170119,,,D*72
$GPRMC,214249.60,A,4629.97372,N,12222.61764,W,37.073,88.08,170119,,,D*72
$GPRMC,214249.80,A,4629.97379,N,12222.61460,W,37.304,88.39,170119,,,D*71
$GPRMC,214250.00,A,4629.97384,N,12222.61155,W,37.576,88.89,170119,,,D*78
$GPRMC,214250.20,A,4629.97387,N,12222.60847,W,37.924,89.20,170119,,,D*7B
$GPRMC,214250.40,A,4629.97389,N,12222.60537,W,38.047,89.42,170119,,,D*7E
$GPRMC,214250.60,A,4629.97391,N,12222.60226,W,38.297,89.50,170119,,,D*7E
$GPRMC,214250.80,A,4629.97394,N,12222.59914,W,38.518,89.53,170119,,,D*76
$GPRMC,214251.00,A,4629.97396,N,12222.59599,W,38.768,89.53,170119,,,D*71
$GPRMC,214251.20,A,4629.97398,N,12222.59284,W,38.931,89.48,170119,,,D*7E
$GPRMC,214251.40,A,4629.97401,N,12222.58967,W,39.110,89.41,170119,,,D*7B
$GPRMC,214251.60,A,4629.97404,N,12222.58648,W,39.410,89.44,170119,,,D*7E
$GPRMC,214251.80,A,4629.97407,N,12222.58328,W,39.589,89.56,170119,,,D*72
$GPRMC,214252.00,A,4629.97410,N,12222.58009,W,39.705,89.55,170119,,,D*7A
$GPRMC,214252.20,A,4629.97411,N,12222.57687,W,39.855,89.71,170119,,,D*7A
$GPRMC,214252.40,A,4629.97410,N,12222.57365,W,39.913,89.80,170119,,,D*79
$GPRMC,214252.60,A,4629.97411,N,12222.57043,W,39.981,89.76,170119,,,D*7F
$GPRMC,214252.80,A,4629.97412,N,12222.56719,W,40.112,89.47,170119,,,D*75
$GPRMC,214253.00,A,4629.97414,N,12222.56395,W,40.193,89.42,170119,,,D*76
$GPRMC,214253.20,A,4629.97415,N,12222.56069,W,40.246,89.57,170119,,,D*7A
$GPRMC,214253.40,A,4629.97415,N,12222.55741,W,40.400,89.49,170119,,,D*79
$GPRMC,214253.60,A,4629.97418,N,12222.55415,W,40.428,89.19,170119,,,D*7B
$GPRMC,214253.80,A,4629.97419,N,12222.55084,W,40.697,89.41,170119,,,D*73
$GPRMC,214254.00,A,4629.97421,N,12222.54754,W,40.867,89.37,170119,,,D*7C
$GPRMC,214254.20,A,4629.97424,N,12222.54420,W,41.218,89.37,170119,,,D*78
$GPRMC,214254.40,A,4629.97427,N,12222.54085,W,41.357,89.23,170119,,,D*79
$GPRMC,214254.60,A,4629.97431,N,12222.53748,W,41.573,89.26,170119,,,D*78
$GPRMC,214254.80,A,4629.97434,N,12222.53408,W,41.697,89.21,170119,,,D*7A
$GPRMC,214255.00,A,4629.97437,N,12222.53070,W,41.596,89.11,170119,,,D*7A
$GPRMC,214255.20,A,4629.97440,N,12222.52731,W,41.683,89.14,170119,,,D*79
$GPRMC,214255.40,A,4629.97444,N,12222.52395,W,41.441,88.92,170119,,,D*72
$GPRMC,214255.60,A,4629.97450,N,12222.52060,W,41.210,88.45,170119,,,D*74
$GPRMC,214255.80,A,4629.97457,N,12222.51725,W,41.198,88.25,170119,,,D*7D
$GPRMC,214256.00,A,4629.97456,N,12222.51387,W,41.458,89.52,170119,,,D*73
$GPRMC,214256.20,A,4629.97457,N,12222.51048,W,41.562,89.57,170119,,,D*7D
$GPRMC,214256.40,A,4629.97459,N,12222.50712,W,41.315,89.57,170119,,,D*7A
$GPRMC,214256.60,A,4629.97462,N,12222.50375,W,41.279,89.05,170119,,,D*79
$GPRMC,214256.80,A,4629.97465,N,12222.50040,W,41.127,89.22,170119,,,D*78
$GPRMC,214257.00,A,4629.97468,N,12222.49706,W,40.984,89.08,170119,,,D*79
$GPRMC,214257.20,A,4629.97470,N,12222.49373,W,40.835,89.30,170119,,,D*74
$GPRMC,214257.40,A,4629.97473,N,12222.49041,W,40.727,89.08,170119,,,D*74
$GPRMC,214257.60,A,4629.97476,N,12222.48710,W,40.637,89.01,170119,,,D*78
$GPRMC,214257.80,A,4629.97479,N,12222.48379,W,40.529,89.06,170119,,,D*79
$GPRMC,214258.00,A,4629.97482,N,12222.48048,W,40.406,89.05,170119,,,D*74
$GPRMC,214258.20,A,4629.97486,N,12222.47720,W,40.207,88.89,170119,,,D*76
$GPRMC,214258.40,A,4629.97489,N,12222.47393,W,40.239,89.15,170119,,,D*7A
$GPRMC,214258.60,A,4629.97488,N,12222.47064,W,40.411,89.75,170119,,,D*78
$GPRMC,214258.80,A,4629.97489,N,12222.46737,W,40.255,89.82,170119,,,D*79
$GPRMC,214259.00,A,4629.97495,N,12222.46414,W,40.008,89.10,170119,,,D*7E
$GPRMC,214259.20,A,4629.97503,N,12222.46097,W,39.408,88.63,170119,,,D*72
$GPRMC,214259.40,A,4629.97510,N,12222.45782,W,39.107,88.38,170119,,,D*72
$GPRMC,214259.60,A,4629.97515,N,12222.45465,W,39.164,88.58,170119,,,D*7C
$GPRMC,214259.80,A,4629.97513,N,12222.45144,W,39.293,89.68,170119,,,D*7B
$GPRMC,214300.00,A,4629.97513,N,12222.44828,W,39.104,89.88,170119,,,D*7F
$GPRMC,214300.20,A,4629.97513,N,12222.44512,W,39.057,89.99,170119,,,D*7E
$GPRMC,214300.40,A,4629.97512,N,12222.44196,W,38.897,90.30,170119,,,D*7F
$GPRMC,214300.60,A,4629.97512,N,12222.43885,W,38.699,90.15,170119,,,D*76
$GPRMC,214300.80,A,4629.97510,N,12222.43572,W,38.657,90.29,170119,,,D*72
$GPRMC,214301.00,A,4629.97510,N,12222.43262,W,38.471,90.29,170119,,,D*7B
$GPRMC,214301.20,A,4629.97512,N,12222.42955,W,38.190,89.84,170119,,,D*70
$GPRMC,214301.40,A,4629.97524,N,12222.42657,W,37.575,88.42,170119,,,D*75
$GPRMC,214301.60,A,4629.97528,N,12222.42356,W,37.405,88.72,170119,,,D*7A
$GPRMC,214301.80,A,4629.97524,N,12222.42054,W,37.278,89.97,170119,,,D*7F
$GPRMC,214302.00,A,4629.97528,N,12222.41759,W,36.866,89.15,170119,,,D*7F
$GPRMC,214302.20,A,4629.97536,N,12222.41470,W,36.260,88.50,170119,,,D*76
$GPRMC,214302.40,A,4629.97539,N,12222.41183,W,35.694,88.99,170119,,,D*7F
$GPRMC,214302.60,A,4629.97543,N,12222.40905,W,34.807,88.76,170119,,,D*73
$GPRMC,214302.80,A,4629.97542,N,12222.40631,W,34.155,89.92,170119,,,D*71
$GPRMC,214303.00,A,4629.97540,N,12222.40360,W,33.756,90.30,170119,,,D*79
$GPRMC,214303.20,A,4629.97537,N,12222.40097,W,32.880,90.61,170119,,,D*71
$GPRMC,214303.40,A,4629.97534,N,12222.39837,W,32.259,90.75,170119,,,D*73
$GPRMC,214303.60,A,4629.97529,N,12222.39584,W,31.438,91.01,170119,,,D*78
$GPRMC,214303.80,A,4629.97526,N,12222.39335,W,30.718,90.79,170119,,,D*7B
$GPRMC,214304.00,A,4629.97524,N,12222.39090,W,30.084,90.34,170119,,,D*71
$GPRMC,214304.20,A,4629.97519,N,12222.38852,W,29.242,91.05,170119,,,D*79
$GPRMC,214304.40,A,4629.97518,N,12222.38618,W,28.831,90.21,170119,,,D*76
$GPRMC,214304.60,A,4629.97519,N,12222.38392,W,28.041,89.83,170119,,,D*7D
$GPRMC,214304.80,A,4629.97518,N,12222.38174,W,27.126,90.63,170119,,,D*71
$GPRMC,214305.00,A,4629.97521,N,12222.37960,W,26.675,89.39,170119,,,D*77
$GPRMC,214305.20,A,4629.97524,N,12222.37750,W,26.016,88.69,170119,,,D*7A
$GPRMC,214305.40,A,4629.97531,N,12222.37546,W,25.450,87.73,170119,,,D*7C
$GPRMC,214305.60,A,4629.97543,N,12222.37346,W,24.834,85.73,170119,,,D*70
$GPRMC,214305.80,A,4629.97560,N,12222.37152,W,24.315,83.28,170119,,,D*78
$GPRMC,214306.00,A,4629.97581,N,12222.36965,W,23.728,80.96,170119,,,D*7A
$GPRMC,214306.20,A,4629.97611,N,12222.36782,W,23.318,77.67,170119,,,D*74
$GPRMC,214306.40,A,4629.97648,N,12222.36609,W,22.748,74.21,170119,,,D*7D
$GPRMC,214306.60,A,4629.97688,N,12222.36438,W,22.310,71.32,170119,,,D*7D
$GPRMC,214306.80,A,4629.97733,N,12222.36275,W,21.901,69.04,170119,,,D*78
$GPRMC,214307.00,A,4629.97787,N,12222.36122,W,21.344,64.78,170119,,,D*72
$GPRMC,214307.20,A,4629.97848,N,12222.35977,W,21.063,60.57,170119,,,D*78
$GPRMC,214307.40,A,4629.97915,N,12222.35844,W,20.582,56.15,170119,,,D*7E
$GPRMC,214307.60,A,4629.97984,N,12222.35714,W,20.441,53.23,170119,,,D*70
$GPRMC,214307.80,A,4629.98057,N,12222.35597,W,19.820,49.15,170119,,,D*70
$GPRMC,214308.00,A,4629.98143,N,12222.35490,W,20.177,42.92,170119,,,D*70
$GPRMC,214308.20,A,4629.98232,N,12222.35392,W,20.056,38.47,170119,,,A*70
$GPRMC,214308.40,A,4629.98324,N,12222.35307,W,19.713,33.70,170119,,,A*7F
$GPRMC,214308.60,A,4629.98417,N,12222.35226,W,19.422,31.35,170119,,,A*7A
$GPRMC,214308.80,A,4629.98519,N,12222.35161,W,19.899,24.63,170119,,,A*70
$GPRMC,214309.00,A,4629.98629,N,12222.35103,W,20.599,20.37,170119,,,A*7F
$GPRMC,214309.20,A,4629.98739,N,12222.35060,W,20.443,16.13,170119,,,A*7C
$GPRMC,214309.40,A,4629.98849,N,12222.35028,W,20.238,11.92,170119,,,A*7A
$GPRMC,214309.60,A,4629.98957,N,12222.35014,W,19.275,7.46,170119,,,A*44
$GPRMC,214309.80,A,4629.99078,N,12222.35003,W,21.193,4.29,170119,,,A*43
$GPRMC,214310.00,A,4629.99202,N,12222.35010,W,21.778,359.29,170119,,,A*46
$GPRMC,214310.20,A,4629.99327,N,12222.35022,W,22.126,357.06,170119,,,A*4E
$GPRMC,214310.40,A,4629.99452,N,12222.35032,W,22.658,356.35,170119,,,A*43
$GPRMC,214310.60,A,4629.99579,N,12222.35052,W,23.006,353.85,170119,,,A*4D
$GPRMC,214310.80,A,4629.99709,N,12222.35075,W,23.569,352.28,170119,,,A*49
$GPRMC,214311.00,A,4629.99840,N,12222.35105,W,23.992,350.85,170119,,,A*49
$GPRMC,214311.20,A,4629.99974,N,12222.35137,W,24.377,350.07,170119,,,A*40
$GPRMC,214311.40,A,4630.00110,N,12222.35176,W,24.807,349.00,170119,,,A*42
$GPRMC,214311.60,A,4630.00246,N,12222.35210,W,24.861,349.77,170119,,,A*43
$GPRMC,214311.80,A,4630.00384,N,12222.35250,W,25.247,348.29,170119,,,A*43
$GPRMC,214312.00,A,4630.00523,N,12222.35291,W,25.547,348.44,170119,,,A*42
$GPRMC,214312.20,A,4630.00665,N,12222.35339,W,26.123,347.33,170119,,,A*48
$GPRMC,214312.40,A,4630.00806,N,12222.35379,W,25.957,348.64,170119,,,A*44
$GPRMC,214312.60,A,4630.00950,N,12222.35419,W,26.369,348.85,170119,,,A*4E
$GPRMC,214312.80,A,4630.01091,N,12222.35460,W,25.816,348.89,170119,,,A*47
$GPRMC,214313.00,A,4630.01239,N,12222.35507,W,26.671,348.34,170119,,,A*44
$GPRMC,214313.20,A,4630.01387,N,12222.35544,W,27.021,349.63,170119,,,A*44
$GPRMC,214313.40,A,4630.01533,N,12222.35581,W,26.712,350.15,170119,,,A*4D
$GPRMC,214313.60,A,4630.01680,N,12222.35618,W,26.975,349.66,170119,,,A*44
$GPRMC,214313.80,A,4630.01828,N,12222.35648,W,26.935,351.20,170119,,,A*4C
$GPRMC,214314.00,A,4630.01987,N,12222.35683,W,28.194,350.94,170119,,,A*43
$GPRMC,214314.20,A,4630.02141,N,12222.35725,W,28.274,350.02,170119,,,A*4F
$GPRMC,214314.40,A,4630.02300,N,12222.35761,W,28.533,350.57,170119,,,A*4A
$GPRMC,214314.60,A,4630.02447,N,12222.35789,W,27.623,351.75,170119,,,A*46
$GPRMC,214314.80,A,4630.02604,N,12222.35809,W,27.995,353.16,170119,,,A*4F
$GPRMC,214315.00,A,4630.02766,N,12222.35829,W,28.660,354.09,170119,,,A*42
$GPRMC,214315.20,A,4630.02927,N,12222.35854,W,28.864,354.18,170119,,,A*4B
$GPRMC,214315.40,A,4630.03082,N,12222.35914,W,28.994,349.17,170119,,,A*42
$GPRMC,214315.60,A,4630.03223,N,12222.35951,W,27.028,349.85,170119,,,A*42
$GPRMC,214315.80,A,4630.03362,N,12222.36012,W,26.276,346.67,170119,,,A*4E
$GPRMC,214316.00,A,4630.03509,N,12222.36047,W,26.397,349.36,170119,,,A*4B
$GPRMC,214316.20,A,4630.03650,N,12222.36042,W,25.697,356.02,170119,,,A*4C
$GPRMC,214316.40,A,4630.03785,N,12222.36069,W,24.825,354.15,170119,,,A*48
$GPRMC,214316.60,A,4630.03921,N,12222.36095,W,24.589,353.18,170119,,,A*48
$GPRMC,214316.80,A,4630.04071,N,12222.36133,W,26.095,351.36,170119,,,A*44
$GPRMC,214317.00,A,4630.04236,N,12222.36177,W,28.243,350.08,170119,,,A*47
$GPRMC,214317.20,A,4630.04404,N,12222.36237,W,29.379,348.47,170119,,,A*4E
$GPRMC,214317.40,A,4630.04570,N,12222.36278,W,29.986,349.26,170119,,,A*4D
$GPRMC,214317.60,A,4630.04741,N,12222.36314,W,30.483,350.89,170119,,,A*49
$GPRMC,214317.80,A,4630.04887,N,12222.36355,W,28.172,350.34,170119,,,A*43
$GPRMC,214318.00,A,4630.05054,N,12222.36416,W,29.255,348.41,170119,,,A*4F
$GPRMC,214318.20,A,4630.05218,N,12222.36479,W,29.478,347.31,170119,,,A*4F
$GPRMC,214318.40,A,4630.05383,N,12222.36521,W,29.854,349.22,170119,,,A*48
$GPRMC,214318.60,A,4630.05550,N,12222.36570,W,30.301,348.41,170119,,,A*41
$GPRMC,214318.80,A,4630.05719,N,12222.36619,W,30.776,348.57,170119,,,A*4F
$GPRMC,214319.00,A,4630.05892,N,12222.36673,W,31.458,346.86,170119,,,A*4A
$GPRMC,214319.20,A,4630.06065,N,12222.36733,W,31.615,345.91,170119,,,A*40
$GPRMC,214319.40,A,4630.06233,N,12222.36794,W,31.613,344.86,170119,,,A*4B
$GPRMC,214319.60,A,4630.06401,N,12222.36872,W,30.889,343.36,170119,,,A*49
$GPRMC,214319.80,A,4630.06549,N,12222.36955,W,28.628,340.84,170119,,,A*48
$GPRMC,214320.00,A,4630.06696,N,12222.37051,W,28.153,338.17,170119,,,A*49
$GPRMC,214320.20,A,4630.06860,N,12222.37155,W,30.750,336.36,170119,,,A*48
$GPRMC,214320.40,A,4630.07022,N,12222.37261,W,31.540,335.17,170119,,,A*47
$GPRMC,214320.60,A,4630.07171,N,12222.37385,W,31.632,331.02,170119,,,A*4F
$GPRMC,214320.80,A,4630.07314,N,12222.37517,W,31.362,328.28,170119,,,A*4D
$GPRMC,214321.00,A,4630.07466,N,12222.37641,W,31.222,329.71,170119,,,A*4E
$GPRMC,214321.20,A,4630.07625,N,12222.37780,W,32.255,328.76,170119,,,A*40
$GPRMC,214321.40,A,4630.07781,N,12222.37929,W,33.199,326.27,170119,,,A*4C
$GPRMC,214321.60,A,4630.07942,N,12222.38082,W,33.678,326.06,170119,,,A*43
$GPRMC,214321.80,A,4630.08100,N,12222.38236,W,33.903,325.03,170119,,,A*44
$GPRMC,214322.00,A,4630.08254,N,12222.38392,W,33.892,323.97,170119,,,A*40
$GPRMC,214322.20,A,4630.08399,N,12222.38561,W,33.700,321.93,170119,,,A*4A
$GPRMC,214322.40,A,4630.08546,N,12222.38729,W,33.540,321.80,170119,,,A*42
$GPRMC,214322.60,A,4630.08692,N,12222.38896,W,33.755,321.46,170119,,,A*4D
$GPRMC,214322.80,A,4630.08834,N,12222.39067,W,33.339,320.42,170119,,,A*4D
$GPRMC,214323.00,A,4630.08975,N,12222.39239,W,33.364,320.06,170119,,,A*41
$GPRMC,214323.20,A,4630.09118,N,12222.39410,W,33.474,319.65,170119,,,A*45
$GPRMC,214323.40,A,4630.09255,N,12222.39583,W,33.008,318.75,170119,,,A*4D
$GPRMC,214323.60,A,4630.09393,N,12222.39756,W,33.093,318.49,170119,,,A*43
$GPRMC,214323.80,A,4630.09522,N,12222.39933,W,32.471,317.14,170119,,,A*42
$GPRMC,214324.00,A,4630.09651,N,12222.40108,W,32.123,316.98,170119,,,A*43
$GPRMC,214324.20,A,4630.09786,N,12222.40283,W,32.364,317.76,170119,,,A*4A
$GPRMC,214324.40,A,4630.09918,N,12222.40455,W,32.128,318.06,170119,,,A*4A
$GPRMC,214324.60,A,4630.10040,N,12222.40629,W,31.560,316.28,170119,,,A*44
$GPRMC,214324.80,A,4630.10166,N,12222.40790,W,30.990,317.12,170119,,,A*46
$GPRMC,214325.00,A,4630.10287,N,12222.40960,W,30.705,315.80,170119,,,A*49
$GPRMC,214325.20,A,4630.10402,N,12222.41130,W,30.087,314.96,170119,,,A*47
$GPRMC,214325.40,A,4630.10527,N,12222.41298,W,30.354,316.49,170119,,,A*4B
$GPRMC,214325.60,A,4630.10649,N,12222.41466,W,30.440,316.18,170119,,,A*43
$GPRMC,214325.80,A,4630.10759,N,12222.41626,W,28.955,315.47,170119,,,A*42
$GPRMC,214326.00,A,4630.10870,N,12222.41793,W,28.989,314.38,170119,,,A*4A
$GPRMC,214326.20,A,4630.10969,N,12222.41966,W,28.435,311.66,170119,,,A*41
$GPRMC,214326.40,A,4630.11065,N,12222.42140,W,27.881,310.30,170119,,,A*42
$GPRMC,214326.60,A,4630.11169,N,12222.42298,W,27.408,312.29,170119,,,A*4C
$GPRMC,214326.80,A,4630.11273,N,12222.42461,W,27.481,312.35,170119,,,A*46
$GPRMC,214327.00,A,4630.11372,N,12222.42621,W,27.009,312.27,170119,,,A*4E
$GPRMC,214327.20,A,4630.11464,N,12222.42781,W,26.222,311.30,170119,,,A*48
$GPRMC,214327.40,A,4630.11562,N,12222.42935,W,25.956,312.80,170119,,,A*4B
$GPRMC,214327.60,A,4630.11665,N,12222.43090,W,26.295,313.71,170119,,,A*42
$GPRMC,214327.80,A,4630.11766,N,12222.43240,W,26.167,314.70,170119,,,A*49
$GPRMC,214328.00,A,4630.11860,N,12222.43396,W,25.751,312.34,170119,,,A*4B
$GPRMC,214328.20,A,4630.11949,N,12222.43541,W,24.635,311.68,170119,,,A*47
$GPRMC,214328.40,A,4630.12040,N,12222.43690,W,24.735,311.32,170119,,,A*43
$GPRMC,214328.60,A,4630.12137,N,12222.43835,W,24.678,312.88,170119,,,A*4B
$GPRMC,214328.80,A,4630.12228,N,12222.43976,W,24.089,312.05,170119,,,A*43
$GPRMC,214329.00,A,4630.12329,N,12222.44109,W,23.927,314.36,170119,,,A*41
$GPRMC,214329.20,A,4630.12415,N,12222.44250,W,23.481,312.04,170119,,,A*42
$GPRMC,214329.40,A,4630.12504,N,12222.44387,W,23.294,311.89,170119,,,A*4A
$GPRMC,214329.60,A,4630.12588,N,12222.44521,W,22.727,310.62,170119,,,A*4E
$GPRMC,214329.80,A,4630.12674,N,12222.44659,W,22.716,309.17,170119,,,A*44
$GPRMC,214330.00,A,4630.12786,N,12222.44780,W,23.272,316.64,170119,,,A*41
$GPRMC,214330.20,A,4630.12903,N,12222.44888,W,23.455,321.32,170119,,,A*43
$GPRMC,214330.40,A,4630.12991,N,12222.45029,W,23.530,315.56,170119,,,A*4B
$GPRMC,214330.60,A,4630.13070,N,12222.45164,W,22.706,312.64,170119,,,A*46
$GPRMC,214330.80,A,4630.13156,N,12222.45314,W,23.668,311.14,170119,,,A*44
$GPRMC,214331.00,A,4630.13239,N,12222.45467,W,23.970,309.21,170119,,,A*4D
$GPRMC,214331.20,A,4630.13324,N,12222.45623,W,24.327,307.67,170119,,,A*43
$GPRMC,214331.40,A,4630.13405,N,12222.45787,W,24.706,305.62,170119,,,A*4E
$GPRMC,214331.60,A,4630.13484,N,12222.45952,W,24.855,304.05,170119,,,A*4A
$GPRMC,214331.80,A,4630.13557,N,12222.46120,W,24.893,301.59,170119,,,A*43
